[
{"NUMBER":1,"STATION":"Athenaeum","LAT":39.77383,"LON":-86.15043,"BIKE":6,"DOCK":5,"ADDRESS":"401 E. Michigan St., Indianapolis, IN 46204","STREET":"401 E. Michigan St.","CITY":"Indianapolis, IN","ZIP":46204},
{"NUMBER":2,"STATION":"Bankers Life Fieldhouse","LAT":39.76481,"LON":-86.1565,"BIKE":8,"DOCK":9,"ADDRESS":"169 S. Pennsylvania St., Indianapolis, IN 46204","STREET":"169 S. Pennsylvania St.","CITY":"Indianapolis, IN","ZIP":46204},
{"NUMBER":3,"STATION":"Central Library","LAT":39.77803,"LON":-86.15631,"BIKE":3,"DOCK":6,"ADDRESS":"40 E. St. Clair St., Indianapolis, IN 46204","STREET":"40 E. St. Clair St.","CITY":"Indianapolis, IN","ZIP":46204},
{"NUMBER":4,"STATION":"City County Building","LAT":39.76722,"LON":-86.15416,"BIKE":4,"DOCK":10,"ADDRESS":"200 E. Washington St., Indianapolis, IN 46204","STREET":"200 E. Washington St.","CITY":"Indianapolis, IN","ZIP":46204},
{"NUMBER":5,"STATION":"City Market","LAT":39.76866,"LON":-86.15284,"BIKE":5,"DOCK":17,"ADDRESS":"108 N. Alabama St., Indianapolis, IN 46204","STREET":"108 N. Alabama St.","CITY":"Indianapolis, IN","ZIP":46204},
{"NUMBER":6,"STATION":"Convention Center - Maryland and Capitol","LAT":39.76593,"LON":-86.16216,"BIKE":8,"DOCK":6,"ADDRESS":"50 S. Capitol Ave., Indianapolis, IN 46225","STREET":"50 S. Capitol Ave.","CITY":"Indianapolis, IN","ZIP":46225},
{"NUMBER":7,"STATION":"Convention Center at Georgia Street","LAT":39.76423,"LON":-86.16161,"BIKE":14,"DOCK":9,"ADDRESS":"151 W. Georgia St., Indianapolis, IN 46225","STREET":"151 W. Georgia St.","CITY":"Indianapolis, IN","ZIP":46225},
{"NUMBER":8,"STATION":"Fletcher Place - Virginia and Merrill","LAT":39.75893,"LON":-86.147,"BIKE":7,"DOCK":2,"ADDRESS":"531 Virginia Ave., Indianapolis, IN 46203","STREET":"531 Virginia Ave.","CITY":"Indianapolis, IN","ZIP":46203},
{"NUMBER":9,"STATION":"Fletcher Place - Virginia and Norwood","LAT":39.7574,"LON":-86.14549,"BIKE":5,"DOCK":6,"ADDRESS":"749 Virginia Ave., Indianapolis, IN 46203","STREET":"749 Virginia Ave.","CITY":"Indianapolis, IN","ZIP":46203},
{"NUMBER":10,"STATION":"Fountain Square","LAT":39.75241,"LON":-86.13995,"BIKE":5,"DOCK":7,"ADDRESS":"1066 Virginia Ave., Indianapolis, IN 46225","STREET":"1066 Virginia Ave.","CITY":"Indianapolis, IN","ZIP":46225},
{"NUMBER":11,"STATION":"Glick Peace Walk","LAT":39.77669,"LON":-86.16119,"BIKE":5,"DOCK":2,"ADDRESS":"625 N. Capitol Ave., Indianapolis, IN 46204","STREET":"625 N. Capitol Ave.","CITY":"Indianapolis, IN","ZIP":46204},
{"NUMBER":12,"STATION":"Indiana Government Center","LAT":39.76737,"LON":-86.16474,"BIKE":6,"DOCK":3,"ADDRESS":"364 W. Washington St., Indianapolis, IN 46204","STREET":"364 W. Washington St.","CITY":"Indianapolis, IN","ZIP":46204},
{"NUMBER":13,"STATION":"IUPUI Campus Center","LAT":39.77338,"LON":-86.17543,"BIKE":6,"DOCK":10,"ADDRESS":"401 University Blvd., Indianapolis, IN 46202","STREET":"401 University Blvd.","CITY":"Indianapolis, IN","ZIP":46202},
{"NUMBER":14,"STATION":"Mass Ave and Alabama","LAT":39.77224,"LON":-86.1526,"BIKE":6,"DOCK":11,"ADDRESS":"372 N. Alabama St., Indianapolis, IN 46204","STREET":"372 N. Alabama St.","CITY":"Indianapolis, IN","ZIP":46204},
{"NUMBER":15,"STATION":"Mass Ave and Park","LAT":39.77643,"LON":-86.14727,"BIKE":7,"DOCK":4,"ADDRESS":"680 Massachusetts Ave., Indianapolis, IN 46204","STREET":"680 Massachusetts Ave.","CITY":"Indianapolis, IN","ZIP":46204},
{"NUMBER":16,"STATION":"Michigan and Blackford","LAT":39.77475,"LON":-86.16984,"BIKE":3,"DOCK":6,"ADDRESS":"525 N. Blackford St., Indianapolis, IN 46202","STREET":"525 N. Blackford St.","CITY":"Indianapolis, IN","ZIP":46202},
{"NUMBER":17,"STATION":"Michigan and Senate","LAT":39.77418,"LON":-86.16348,"BIKE":3,"DOCK":8,"ADDRESS":"300 N. Michigan St., Indianapolis, IN 46202","STREET":"300 N. Michigan St.","CITY":"Indianapolis, IN","ZIP":46202},
{"NUMBER":18,"STATION":"Monument Circle","LAT":39.76885,"LON":-86.15736,"BIKE":9,"DOCK":6,"ADDRESS":"121 Monument Circle, Indianapolis, IN 46201","STREET":"121 Monument Circle","CITY":"Indianapolis, IN","ZIP":46201},
{"NUMBER":19,"STATION":"North and Alabama","LAT":39.77564,"LON":-86.15217,"BIKE":9,"DOCK":2,"ADDRESS":"605 N. Alabama St., Indianapolis, IN 46204","STREET":"605 N. Alabama St.","CITY":"Indianapolis, IN","ZIP":46204},
{"NUMBER":20,"STATION":"North End of Canal","LAT":39.78179,"LON":-86.1659,"BIKE":6,"DOCK":3,"ADDRESS":"1325 Canal Walk, Indianapolis, IN 46202","STREET":"1325 Canal Walk","CITY":"Indianapolis, IN","ZIP":46202},
{"NUMBER":21,"STATION":"North End of Mass Ave","LAT":39.77964,"LON":-86.14212,"BIKE":8,"DOCK":3,"ADDRESS":"949 Massachusetts Ave., Indianapolis, IN 46202","STREET":"949 Massachusetts Ave.","CITY":"Indianapolis, IN","ZIP":46202},
{"NUMBER":22,"STATION":"Victory Field","LAT":39.76595,"LON":-86.16689,"BIKE":12,"DOCK":7,"ADDRESS":"99 S. West St., Indianapolis, IN 46225","STREET":"99 S. West St.","CITY":"Indianapolis, IN","ZIP":46225},
{"NUMBER":23,"STATION":"Washington and Illinois","LAT":39.76702,"LON":-86.16016,"BIKE":6,"DOCK":3,"ADDRESS":"101 W. Washington St., Indianapolis, IN 46204","STREET":"101 W. Washington St.","CITY":"Indianapolis, IN","ZIP":46204},
{"NUMBER":24,"STATION":"Washington and Meridian","LAT":39.7672,"LON":-86.15832,"BIKE":8,"DOCK":3,"ADDRESS":"2 W. Washington St., Indianapolis, IN 46204","STREET":"2 W. Washington St.","CITY":"Indianapolis, IN","ZIP":46204},
{"NUMBER":25,"STATION":"White River State Park","LAT":39.76832,"LON":-86.17027,"BIKE":13,"DOCK":10,"ADDRESS":"650 S. Washington St., Indianapolis, IN 46204","STREET":"650 S. Washington St.","CITY":"Indianapolis, IN","ZIP":46204}
]